City_ID,City,Country,Lat,Lng,Max Temp,Humidity,Cloudiness,Wind Speed,Description
0,Palmerston,AU,-12.486,130.9833,91.89,67,40,10.36,scattered clouds
1,Ushuaia,AR,-54.8,-68.3,38.86,81,100,17.27,light rain
2,Cape Town,ZA,-33.9258,18.4232,69.39,73,0,14.0,clear sky
3,Qaanaaq,GL,77.484,-69.3632,-20.16,64,25,8.32,scattered clouds
4,Hobart,AU,-42.8794,147.3294,67.86,85,100,11.5,light rain
5,Albany,US,42.6001,-73.9662,57.38,57,7,1.01,clear sky
6,Atuona,PF,-9.8,-139.0333,78.84,73,62,13.15,broken clouds
7,Richmond,US,37.5538,-77.4603,65.05,54,40,11.5,scattered clouds
8,Avarua,CK,-21.2078,-159.775,86.05,74,63,5.75,light rain
9,Henties Bay,NA,-22.116,14.2845,64.51,83,94,5.57,overcast clouds
10,Taoudenni,ML,22.6783,-3.9836,71.78,21,76,10.74,broken clouds
11,Marzuq,YE,14.4,46.4667,57.96,17,5,5.3,clear sky
12,Jamestown,US,42.097,-79.2353,53.02,62,0,16.11,clear sky
13,Teeli,RU,51.0333,90.2333,-11.63,90,100,0.72,overcast clouds
14,Puerto Ayora,EC,-0.7393,-90.3518,80.55,91,20,3.44,light rain
15,New Norfolk,AU,-42.7826,147.0587,67.5,46,100,5.48,light rain
16,Ormara,PK,25.2088,64.6357,71.55,61,100,6.8,overcast clouds
17,Makkaveyevo,RU,51.7533,113.9454,11.23,71,100,9.35,overcast clouds
18,Norman Wells,CA,65.282,-126.8329,-9.6,94,100,3.53,overcast clouds
19,Meulaboh,ID,4.1363,96.1285,78.3,82,97,3.96,moderate rain
20,Vaini,TO,-21.2,-175.2,84.36,84,75,11.5,moderate rain
21,Walvis Bay,NA,-22.9575,14.5053,62.1,91,56,7.18,broken clouds
22,Sitka,US,57.0531,-135.33,35.49,87,100,8.05,light rain
23,Hermanus,ZA,-34.4187,19.2345,64.8,86,30,16.02,scattered clouds
24,Bambous Virieux,MU,-20.3428,57.7575,74.21,94,75,3.44,light intensity shower rain
25,Punta Arenas,CL,-53.15,-70.9167,41.11,56,20,16.11,few clouds
26,Biak,ID,-0.9131,122.8766,82.33,64,100,1.1,overcast clouds
27,Te Anau,NZ,-45.4167,167.7167,70.72,39,96,3.02,overcast clouds
28,Mataura,NZ,-46.1927,168.8643,58.48,55,100,3.78,overcast clouds
29,Matamoros,MX,25.5333,-103.25,77.11,4,40,0.0,scattered clouds
30,Busselton,AU,-33.65,115.3333,69.3,58,66,6.51,broken clouds
31,Kapaa,US,22.0752,-159.319,74.48,80,40,13.8,light rain
32,Georgetown,MY,5.4112,100.3354,82.33,61,20,4.61,few clouds
33,Great Falls,US,47.5002,-111.3008,28.17,64,0,13.8,clear sky
34,Umm Bab,QA,25.2142,50.8072,62.58,83,100,22.7,overcast clouds
35,Kavieng,PG,-2.5744,150.7967,82.63,73,100,8.79,moderate rain
36,Port Alfred,ZA,-33.5906,26.891,68.18,96,99,3.0,moderate rain
37,Hervey Bay,AU,-25.2986,152.8535,82.02,66,0,10.0,clear sky
38,Victoria,HK,22.2855,114.1577,62.26,63,22,11.99,few clouds
39,Shimoda,JP,34.6667,138.95,43.9,62,97,9.89,overcast clouds
40,Berlevag,NO,70.8578,29.0864,32.0,80,44,19.57,scattered clouds
41,Hithadhoo,MV,-0.6,73.0833,80.94,78,25,10.31,scattered clouds
42,Iskateley,RU,67.6803,53.1512,23.61,94,100,20.58,light snow
43,Mayumba,GA,-3.432,10.6554,76.46,88,100,2.01,overcast clouds
44,Severo-Kurilsk,RU,50.6789,156.125,26.83,84,99,32.44,light snow
45,San Patricio,US,28.017,-97.5169,73.49,91,100,13.31,overcast clouds
46,Jinchang,CN,38.4953,102.1739,27.03,55,16,4.79,few clouds
47,Sisimiut,GL,66.9395,-53.6735,11.39,67,100,14.52,overcast clouds
48,Pochutla,MX,15.7432,-96.4661,78.82,79,0,4.32,clear sky
49,Praia,CV,14.9215,-23.5087,68.54,77,20,20.71,few clouds
50,Vanimo,PG,-2.6741,141.3028,80.42,80,95,0.83,moderate rain
51,Pointe Michel,DM,15.25,-61.3833,77.23,73,24,14.05,few clouds
52,Rikitea,PF,-23.1203,-134.9692,79.2,71,100,6.24,overcast clouds
53,Chokurdakh,RU,70.6333,147.9167,-40.11,100,91,1.99,overcast clouds
54,Nyrob,RU,60.733,56.7202,-3.46,100,96,1.05,overcast clouds
55,Saskylakh,RU,71.9167,114.0833,0.99,97,100,7.27,light snow
56,Ler,SS,8.3018,30.1418,75.06,19,43,10.67,scattered clouds
57,Cap Malheureux,MU,-19.9842,57.6142,74.46,77,2,1.01,clear sky
58,Inta,RU,66.0317,60.1659,12.09,88,100,23.04,overcast clouds
59,Kozhva,RU,65.1073,57.0459,4.6,96,100,6.24,overcast clouds
60,Tilichiki,RU,60.4667,166.1,-8.48,80,100,12.82,overcast clouds
61,Pali,IN,25.7667,73.3333,65.5,25,0,2.98,clear sky
62,Abu Dhabi,AE,24.4667,54.3667,71.71,28,0,9.22,clear sky
63,Leshukonskoye,RU,64.8989,45.7622,3.07,97,71,5.41,broken clouds
64,Upernavik,GL,72.7868,-56.1549,-11.69,73,100,9.35,overcast clouds
65,Manokwari,ID,-0.8667,134.0833,80.55,81,100,3.47,overcast clouds
66,Kahului,US,20.8947,-156.47,77.85,69,40,16.11,scattered clouds
67,Londa,IN,15.4691,74.5191,64.06,26,6,5.26,clear sky
68,Wanaka,NZ,-44.7,169.15,68.79,37,73,4.07,broken clouds
69,Beringovskiy,RU,63.05,179.3167,-12.89,94,100,14.61,overcast clouds
70,Chissamba,AO,-12.1667,17.3333,62.67,94,100,4.25,overcast clouds
71,Hami,CN,42.8,93.45,31.6,39,75,4.81,broken clouds
72,Ribeira Grande,PT,38.5167,-28.7,60.78,71,87,14.0,overcast clouds
73,Talakan,RU,50.3167,130.3667,5.4,89,100,2.89,overcast clouds
74,Atar,MR,20.5169,-13.0499,72.82,21,3,8.99,clear sky
75,Shingu,JP,33.7333,135.9833,46.54,41,5,3.38,clear sky
76,Yarada,IN,17.65,83.2667,73.02,75,0,2.8,clear sky
77,Salalah,OM,17.0151,54.0924,71.69,78,0,3.44,clear sky
78,Faanui,PF,-16.4833,-151.75,82.09,73,21,9.86,few clouds
79,Lebu,CL,-37.6167,-73.65,57.54,81,0,21.5,clear sky
80,Havre,FR,49.5833,0.3333,49.77,81,0,9.22,clear sky
81,Gweta,BW,-20.1833,25.2333,72.07,86,100,9.33,moderate rain
82,Arraial Do Cabo,BR,-22.9661,-42.0278,75.99,93,100,15.52,overcast clouds
83,Port Elizabeth,ZA,-33.918,25.5701,68.67,84,94,5.79,overcast clouds
84,Allonnes,FR,47.9674,0.1581,39.24,93,68,0.0,broken clouds
85,Thompson,CA,55.7435,-97.8558,-21.68,98,100,4.16,overcast clouds
86,Praia Da Vitoria,PT,38.7333,-27.0667,59.76,71,50,11.95,scattered clouds
87,Sharjah,AE,25.3573,55.4033,76.98,20,0,11.5,clear sky
88,Chaozhou,CN,23.6651,116.6379,56.68,64,50,3.15,scattered clouds
89,Springdale,US,36.1867,-94.1288,64.04,58,0,5.75,clear sky
90,Yei,SS,4.095,30.6779,68.65,34,73,1.41,broken clouds
91,Vagur,FO,61.4732,-6.8119,42.15,67,79,31.99,light rain
92,Asfi,MA,32.2994,-9.2372,51.87,73,100,7.11,overcast clouds
93,Tessalit,ML,20.1986,1.0114,64.08,19,100,15.97,overcast clouds
94,Guerrero Negro,MX,27.9769,-114.0611,56.82,55,100,14.65,overcast clouds
95,Honiara,SB,-9.4333,159.95,86.25,70,98,5.7,overcast clouds
96,Chandler,US,33.3062,-111.8412,50.59,32,0,6.91,clear sky
97,Coihaique,CL,-45.5752,-72.0662,46.35,53,0,3.44,clear sky
98,Willowmore,ZA,-33.2926,23.4895,61.27,87,30,8.34,scattered clouds
99,Conway,US,35.0887,-92.4421,67.95,87,100,10.36,overcast clouds
100,Champerico,GT,14.3,-91.9167,77.88,76,0,5.21,clear sky
101,Manono,CD,-7.3,27.4167,70.0,96,100,1.63,light rain
102,Bredasdorp,ZA,-34.5322,20.0403,66.88,85,46,14.79,light rain
103,Ixtapa,MX,20.7,-105.2,72.63,68,0,10.36,clear sky
104,Nikolskoye,RU,59.7035,30.7861,32.81,96,100,6.22,overcast clouds
105,Khuzhir,RU,53.1939,107.3397,8.56,81,100,4.14,overcast clouds
106,Banyo,CM,6.75,11.8167,62.89,31,55,2.26,broken clouds
107,Maues,BR,-3.3836,-57.7186,74.77,97,100,1.21,overcast clouds
108,Hamilton,US,39.1834,-84.5333,61.84,64,0,9.22,clear sky
109,Cherskiy,RU,68.75,161.3,-36.4,96,67,3.18,broken clouds
110,Anchorage,US,61.2181,-149.9003,26.65,85,75,4.61,broken clouds
111,Bethel,US,41.3712,-73.414,60.89,68,0,12.66,clear sky
112,Castro,BR,-24.7911,-50.0119,62.82,98,100,3.09,overcast clouds
113,Tuktoyaktuk,CA,69.4541,-133.0374,-26.68,98,20,7.23,few clouds
114,Emerald,AU,-23.5333,148.1667,85.33,56,100,14.07,overcast clouds
115,Dodge City,US,37.7528,-100.0171,25.25,87,100,17.27,snow
116,Inhambane,MZ,-23.865,35.3833,77.94,85,2,8.57,clear sky
117,Glenwood Springs,US,39.5505,-107.3248,18.41,80,100,10.36,light snow
118,Barrow,US,71.2906,-156.7887,-16.58,76,100,8.05,overcast clouds
119,Ahipara,NZ,-35.1667,173.1667,68.9,78,24,9.33,few clouds
120,Narsaq,GL,60.9167,-46.05,-3.78,66,100,6.8,overcast clouds
121,Tateyama,JP,34.9833,139.8667,41.76,46,21,10.04,few clouds
122,Bowen,AU,-20.0167,148.2333,75.9,86,100,14.74,overcast clouds
123,Lavrentiya,RU,65.5833,-171.0,-20.13,93,12,4.47,few clouds
124,Vidosi,BA,43.7714,17.0283,37.76,72,0,3.24,clear sky
125,Codrington,AU,-38.2667,141.9667,94.17,17,99,9.55,overcast clouds
126,Ozernovskiy,RU,51.5,156.5167,27.99,63,100,6.91,overcast clouds
127,Asau,RO,46.4333,26.4,31.12,92,37,5.12,scattered clouds
128,Croy,CH,46.6946,6.4772,43.12,49,100,3.02,overcast clouds
129,Iqaluit,CA,63.7506,-68.5145,-23.31,67,20,10.36,few clouds
130,Luderitz,NA,-26.6481,15.1594,63.57,80,0,18.86,clear sky
131,Pafos,CY,34.7667,32.4167,46.18,49,75,9.22,broken clouds
132,Butaritari,KI,3.0707,172.7902,81.32,77,80,11.01,broken clouds
133,Tura,IN,25.5198,90.2201,66.24,36,0,2.3,clear sky
134,Taree,AU,-31.9,152.4667,85.06,52,0,7.52,clear sky
135,Avera,US,33.194,-82.5271,59.92,73,100,3.91,overcast clouds
136,Dehloran,IR,32.6941,47.2679,49.17,50,15,5.23,few clouds
137,Gorontalo,ID,0.5412,123.0595,87.21,59,100,2.68,overcast clouds
138,Gambela,ET,8.25,34.5833,79.57,34,27,1.34,scattered clouds
139,Lata,PT,40.1629,-8.3327,43.07,80,8,3.8,clear sky
140,Bubaque,GW,11.2833,-15.8333,74.57,76,44,9.42,scattered clouds
141,Chuy,UY,-33.6971,-53.4616,65.7,63,0,6.8,clear sky
142,Camacha,PT,33.0833,-16.3333,56.62,63,20,20.71,few clouds
143,Yellowknife,CA,62.456,-114.3525,-27.47,100,29,4.74,scattered clouds
144,Gat,IL,31.61,34.7642,48.88,100,56,4.0,broken clouds
145,Muroto,JP,33.2833,134.15,42.21,51,4,0.54,clear sky
146,Samarai,PG,-10.6167,150.6667,84.78,72,45,14.18,scattered clouds
147,Mehamn,NO,71.0357,27.8492,31.95,80,59,12.66,broken clouds
148,Kyren,RU,51.6828,102.1408,3.87,84,79,1.07,broken clouds
149,Kokstad,ZA,-30.5472,29.4241,57.9,88,100,3.09,light rain
150,Acajutla,SV,13.5928,-89.8275,77.34,77,0,6.91,clear sky
151,Nchelenge,ZM,-9.3451,28.734,69.39,90,100,2.13,light rain
152,Lorengau,PG,-2.0226,147.2712,82.53,74,100,4.97,light rain
153,Katsuura,JP,35.1333,140.3,42.82,52,44,13.02,scattered clouds
154,Khatanga,RU,71.9667,102.5,3.94,96,100,11.25,light snow
155,Altay,CN,47.8667,88.1167,19.17,91,100,0.76,light snow
156,Port Blair,IN,11.6667,92.75,80.64,74,40,6.91,haze
157,Pisco,PE,-13.7,-76.2167,73.45,94,20,4.61,mist
158,Marawi,PH,7.9986,124.2928,74.05,75,100,4.61,overcast clouds
159,Ponta Delgada,PT,37.7333,-25.6667,56.12,76,75,2.3,broken clouds
160,Pangnirtung,CA,66.1451,-65.7125,-19.34,100,100,2.42,overcast clouds
161,Parsabad,IR,39.6482,47.9174,32.32,64,0,4.61,clear sky
162,Grand Forks,US,47.9417,-97.4337,1.33,78,75,6.91,broken clouds
163,Upata,VE,8.0086,-62.3989,73.18,93,63,3.94,broken clouds
164,Ruidoso,US,33.3317,-105.673,25.27,35,59,11.5,broken clouds
165,Saint George,US,37.1041,-113.5841,36.95,39,0,9.22,clear sky
166,Buraydah,SA,26.326,43.975,48.65,42,98,9.98,overcast clouds
167,Bousso,TD,10.4795,16.7117,69.73,21,7,11.48,clear sky
168,Barddhaman,IN,23.25,87.85,65.07,51,0,1.63,clear sky
169,Cayenne,GF,4.9333,-52.3333,77.04,94,75,1.14,broken clouds
170,Pineville,US,31.3224,-92.4343,73.29,89,100,14.97,overcast clouds
171,Saint Anthony,US,45.0205,-93.218,23.25,78,0,12.66,clear sky
172,Cidreira,BR,-30.1811,-50.2056,74.34,90,16,8.19,few clouds
173,Bluff,NZ,-46.6,168.3333,58.8,69,100,8.05,overcast clouds
174,Mallaig,CA,54.2169,-111.3685,8.89,100,61,4.72,broken clouds
175,Provideniya,RU,64.3833,-173.3,-12.89,64,40,13.42,scattered clouds
176,Hilo,US,19.7297,-155.09,72.63,92,100,8.99,light rain
177,Belle Glade,US,26.6845,-80.6676,72.05,71,0,10.2,clear sky
178,Coquimbo,CL,-29.9533,-71.3436,60.53,94,20,6.91,few clouds
179,Slonim,BY,53.0867,25.3219,34.11,91,100,4.14,overcast clouds
180,Ulaanbaatar,MN,47.9077,106.8832,-11.07,77,27,2.24,smoke
181,Komsomolskiy,UZ,40.4272,71.7189,36.32,93,100,0.0,light rain
182,Isangel,VU,-19.55,169.2667,80.51,68,100,14.09,overcast clouds
183,Lompoc,US,34.6391,-120.4579,51.01,58,0,1.01,clear sky
184,Paragominas,BR,-2.9667,-47.4833,73.11,98,100,3.38,overcast clouds
185,Saint-Augustin,CA,51.226,-58.6502,22.93,92,100,9.55,overcast clouds
186,Nantucket,US,41.2835,-70.0995,49.14,93,0,14.97,clear sky
187,Saint-Joseph,RE,-21.3667,55.6167,70.18,78,37,8.97,scattered clouds
188,Yambio,SS,4.5721,28.3955,68.27,36,89,4.0,overcast clouds
189,Port Lincoln,AU,-34.7333,135.8667,90.61,24,5,20.07,clear sky
190,Clyde River,CA,70.4692,-68.5914,-23.57,69,100,18.41,light snow
191,Port Hardy,CA,50.6996,-127.4199,39.87,83,100,19.24,light rain
192,Saldanha,ZA,-33.0117,17.9442,64.45,89,0,10.67,clear sky
193,Ust-Tsilma,RU,65.441,52.1498,12.88,92,100,7.02,overcast clouds
194,Bengkulu,ID,-3.8004,102.2655,78.58,78,100,2.62,overcast clouds
195,Ferrol,ES,43.4832,-8.2369,50.34,91,100,4.65,overcast clouds
196,Mount Pleasant,US,32.7941,-79.8626,65.12,88,100,0.0,overcast clouds
197,Tres Arroyos,AR,-38.3739,-60.2798,55.65,74,4,6.49,clear sky
198,Grants Pass,US,42.439,-123.3284,45.91,65,0,0.0,clear sky
199,Chornoliztsi,UA,48.8303,24.8958,29.71,86,86,3.74,overcast clouds
200,Doha,QA,25.2867,51.5333,66.18,82,75,17.27,broken clouds
201,Lamu,KE,-2.2717,40.902,75.7,88,70,9.84,broken clouds
202,Indramayu,ID,-6.3264,108.32,79.72,78,100,15.21,overcast clouds
203,Cururupu,BR,-1.8283,-44.8683,75.29,95,100,2.62,moderate rain
204,Kaitangata,NZ,-46.2817,169.8464,60.55,70,100,7.07,overcast clouds
205,Three Hills,CA,51.7001,-113.2686,21.27,81,97,1.99,overcast clouds
206,Gondar,ET,12.6,37.4667,57.29,56,10,4.72,clear sky
207,Dudinka,RU,69.4058,86.1778,1.62,95,100,14.43,light snow
208,Tuatapere,NZ,-46.1333,167.6833,66.52,56,91,6.29,overcast clouds
209,Mahebourg,MU,-20.4081,57.7,74.25,94,75,3.44,light intensity shower rain
210,Bell Ville,AR,-32.6259,-62.6887,74.66,57,0,2.98,light rain
211,Byron Bay,AU,-28.65,153.6167,79.95,52,1,7.72,clear sky
212,Kodiak,US,57.79,-152.4072,24.31,46,0,10.36,clear sky
213,Fortuna,US,40.5982,-124.1573,45.66,70,0,0.0,clear sky
214,Imbituba,BR,-28.24,-48.6703,73.42,90,100,4.41,overcast clouds
215,Sao Simao,BR,-21.4792,-47.5508,70.25,96,100,2.37,moderate rain
216,Geraldton,AU,-28.7667,114.6,77.41,53,40,13.8,scattered clouds
217,Mar Del Plata,AR,-38.0023,-57.5575,67.08,67,0,12.66,clear sky
218,Baruun-Urt,MN,46.6806,113.2792,7.92,87,18,5.19,few clouds
219,Beni Suef,EG,29.0731,31.0979,48.31,67,14,4.09,few clouds
220,Saint-Raymond,CA,45.467,-73.6095,52.14,79,100,12.66,overcast clouds
221,Raduzhnyy,RU,62.0961,77.475,7.74,96,96,7.85,overcast clouds
222,Dikson,RU,73.5069,80.5464,-1.39,96,100,23.44,light snow
223,Ayagoz,KZ,47.9714,80.4392,-6.83,100,92,4.7,overcast clouds
224,Bahia Honda,CU,22.9036,-83.1592,70.5,82,0,5.32,clear sky
225,Kariba,ZW,-16.5167,28.8,70.57,92,100,3.96,overcast clouds
226,Kruisfontein,ZA,-34.0033,24.7314,64.18,89,60,5.48,broken clouds
227,Todos Santos,MX,23.45,-110.2167,63.66,80,100,11.43,overcast clouds
228,Marquette,US,46.5333,-87.6335,20.64,83,100,11.01,overcast clouds
229,Ulaangom,MN,49.9811,92.0667,-17.34,95,99,2.19,overcast clouds
230,Morinville,CA,53.8001,-113.652,18.88,86,40,2.3,scattered clouds
231,Mount Isa,AU,-20.7333,139.5,80.37,61,100,14.97,overcast clouds
232,Pitimbu,BR,-7.4706,-34.8086,81.19,80,78,9.28,broken clouds
233,Las Margaritas,MX,16.3167,-91.9833,59.02,88,0,3.09,clear sky
234,Porto Real,BR,-22.4197,-44.2903,71.83,95,100,2.55,light rain
235,Westerly,US,41.3776,-71.8273,52.25,85,0,8.05,clear sky
236,Hokitika,NZ,-42.7167,170.9667,70.34,49,6,11.77,clear sky
237,Rincon,US,32.296,-81.2354,62.85,77,0,4.61,clear sky
238,Ancud,CL,-41.8697,-73.8203,49.66,68,14,10.02,few clouds
239,Itarema,BR,-2.9248,-39.9167,77.95,85,95,8.05,overcast clouds
240,San Nicolas,PH,18.1725,120.5953,82.31,51,20,14.97,few clouds
241,Burewala,PK,30.1667,72.65,61.03,29,100,3.49,overcast clouds
242,Arlit,NE,18.7369,7.3853,58.95,18,100,7.85,overcast clouds
243,Independence,US,39.0911,-94.4155,36.39,76,40,11.5,scattered clouds
244,Qeshm,IR,26.9581,56.2719,60.69,60,23,6.69,few clouds
245,Menongue,AO,-14.6585,17.691,61.92,78,75,7.76,broken clouds
246,Port Hedland,AU,-20.3167,118.5667,98.65,49,13,12.66,few clouds
247,Aykhal,RU,66.0,111.5,-13.92,100,100,6.22,overcast clouds
248,Kars,TR,40.602,43.095,3.65,72,0,13.8,clear sky
249,Launceston,AU,-41.45,147.1667,77.61,47,100,3.44,overcast clouds
250,Ostrovnoy,RU,68.0531,39.5131,32.2,87,85,27.18,overcast clouds
251,Vestmannaeyjar,IS,63.4427,-20.2734,39.06,63,98,14.25,overcast clouds
252,Chai Badan,TH,15.2,101.1333,75.85,57,19,19.01,few clouds
253,Yulara,AU,-25.2406,130.9889,98.13,20,2,8.84,clear sky
254,Puerto Del Rosario,ES,28.5004,-13.8627,55.15,71,0,8.05,clear sky
255,San Cristobal,VE,7.7669,-72.225,69.98,94,73,0.98,broken clouds
256,Fort Saint James,CA,54.4333,-124.25,26.33,95,100,4.59,overcast clouds
257,Novokruchininskiy,RU,51.7833,113.7667,13.73,72,100,11.14,overcast clouds
258,Auki,SB,-8.7676,160.7034,85.41,71,100,3.56,overcast clouds
259,Hobyo,SO,5.3505,48.5268,76.37,70,62,14.54,broken clouds
260,Uthal,PK,25.8072,66.6219,70.05,49,92,4.45,overcast clouds
261,Pevek,RU,69.7008,170.3133,-40.0,98,74,3.4,broken clouds
262,Moussoro,TD,13.6408,16.4901,61.84,19,0,20.09,clear sky
263,Colborne,CA,44.0001,-77.8828,47.91,70,58,23.31,broken clouds
264,Beloha,MG,-25.1667,45.05,72.07,74,0,4.83,clear sky
265,Nemuro,JP,43.3236,145.575,20.73,66,9,13.87,clear sky
266,Nimbahera,IN,24.6167,74.6833,62.33,26,0,2.98,clear sky
267,Labuhan,ID,-6.8844,112.2051,80.19,81,100,10.09,overcast clouds
268,Luau,AO,-10.7073,22.2247,64.02,98,100,3.49,overcast clouds
269,Port Augusta,AU,-32.5,137.7667,101.46,8,0,15.57,clear sky
270,Springbok,ZA,-29.6643,17.8865,54.43,92,32,3.62,scattered clouds
271,Singkawang,ID,0.9,109.0,81.95,70,83,5.68,broken clouds
272,Killybegs,IE,54.6333,-8.45,45.73,93,99,5.06,overcast clouds
273,Eyl,SO,7.9803,49.8164,73.31,75,82,12.68,broken clouds
274,Hearst,CA,49.6835,-83.6665,-1.95,93,100,11.1,light snow
275,Faya,SA,18.3851,42.4509,55.51,58,17,5.06,few clouds
276,Kurchum,KZ,48.5722,83.6542,12.9,97,100,4.14,overcast clouds
277,Port Shepstone,ZA,-30.7414,30.455,77.13,82,100,14.83,light rain
278,Besikduzu,TR,41.052,39.2284,37.29,90,100,9.93,light rain
279,Barinas,VE,8.6226,-70.2075,78.76,70,91,3.83,overcast clouds
280,Petropavlovsk-Kamchatskiy,RU,53.0452,158.6483,27.19,40,67,20.13,broken clouds
281,Ardea,IT,41.6123,12.5143,51.64,89,0,2.3,clear sky
282,East London,ZA,-33.0153,27.9116,72.59,89,99,11.14,light rain
283,Airai,TL,-8.9266,125.4092,66.45,81,95,3.06,overcast clouds
284,Yumen,CN,40.2833,97.2,30.61,41,100,5.59,overcast clouds
285,Grindavik,IS,63.8424,-22.4338,31.95,100,40,11.5,light snow
286,Knysna,ZA,-34.0363,23.0471,67.75,91,97,5.82,overcast clouds
287,Shellbrook,CA,53.2168,-106.4011,-4.77,94,11,3.02,few clouds
288,Touros,BR,-5.1989,-35.4608,80.02,79,100,12.77,overcast clouds
289,Sola,VU,-13.8833,167.55,78.37,88,100,18.9,overcast clouds
290,Mastic Beach,US,40.7668,-72.8521,55.78,83,0,15.99,clear sky
291,Nara,JP,34.6851,135.8049,39.49,40,74,5.93,broken clouds
292,Agucadoura,PT,41.4318,-8.7804,53.24,75,17,5.93,few clouds
293,Diapaga,BF,12.0708,1.7889,69.22,15,80,11.92,broken clouds
294,Qaqortoq,GL,60.7167,-46.0333,15.46,63,100,6.93,overcast clouds
295,Zhezkazgan,KZ,47.8043,67.7144,-4.02,77,75,6.71,mist
296,Namwala,ZM,-15.7504,26.4384,65.57,98,100,3.87,overcast clouds
297,Selikhino,RU,50.3672,137.4996,1.53,88,100,8.63,overcast clouds
298,Buala,SB,-8.145,159.5921,84.65,72,99,1.72,light rain
299,Teresa,PH,14.5833,121.2333,85.28,73,76,16.28,broken clouds
300,Agnibilekrou,CI,7.1344,-3.2047,73.29,87,93,2.73,overcast clouds
301,Bathsheba,BB,13.2167,-59.5167,77.61,78,40,20.71,scattered clouds
302,Poum,NC,-20.2333,164.0167,79.41,73,97,17.9,overcast clouds
303,Namibe,AO,-15.1961,12.1522,73.31,78,98,5.41,overcast clouds
304,Lasa,IT,46.6166,10.7002,34.36,41,76,2.08,broken clouds
305,Nouna,BF,12.7333,-3.8667,75.22,17,4,12.19,clear sky
306,Foligno,IT,42.944,12.7011,43.0,64,5,3.2,clear sky
307,Wahpeton,US,46.2652,-96.6059,3.92,78,20,0.0,few clouds
308,Juneau,US,58.3019,-134.4197,36.21,97,100,6.91,snow
309,Tasiilaq,GL,65.6145,-37.6368,15.96,74,91,5.59,overcast clouds
310,Carnarvon,AU,-24.8667,113.6333,77.67,58,0,17.2,clear sky
311,Banda Aceh,ID,5.5577,95.3222,80.35,77,48,10.67,scattered clouds
312,Lagoa,PT,39.05,-27.9833,58.08,72,84,10.11,broken clouds
313,Konitsa,GR,40.0486,20.7567,30.43,76,0,2.28,clear sky
314,Elat,IL,29.5581,34.9482,50.68,73,6,5.91,clear sky
315,Najran,SA,17.4924,44.1277,70.45,47,8,7.0,clear sky
316,Sterling,US,39.0062,-77.4286,65.17,55,20,13.8,few clouds
317,Puerto Carreno,CO,6.189,-67.4859,81.63,66,95,6.53,overcast clouds
318,San Quintin,MX,30.4833,-115.95,54.79,48,7,8.05,clear sky
319,Cabo San Lucas,MX,22.8909,-109.9124,67.51,72,100,4.61,overcast clouds
320,Hay River,CA,60.8156,-115.7999,-18.42,69,40,8.05,scattered clouds
321,Sur,OM,22.5667,59.5289,72.82,36,2,3.76,clear sky
322,Fomboni,KM,-12.28,43.7425,81.95,72,61,12.71,broken clouds
323,Laguna,US,38.421,-121.4238,52.09,37,0,3.44,clear sky
324,Cacule,BR,-14.5033,-42.2222,71.46,63,99,2.77,overcast clouds
325,Kavaratti,IN,10.5669,72.642,79.88,73,27,6.91,scattered clouds
326,Tadine,NC,-21.55,167.8833,79.09,59,99,13.22,overcast clouds
327,Concepcion Del Oro,MX,24.6333,-101.4167,57.04,8,0,10.49,clear sky
328,Caldwell,US,43.6629,-116.6874,37.9,51,0,9.22,clear sky
329,Xianyang,CN,34.3378,108.7026,40.24,81,100,2.24,mist
330,Ariquemes,BR,-9.9133,-63.0408,74.07,96,100,3.56,overcast clouds
331,Inongo,CD,-1.95,18.2667,75.09,76,100,3.67,overcast clouds
332,Patrasaer,IN,23.2167,87.5167,64.71,60,0,0.56,clear sky
333,Havoysund,NO,70.9963,24.6622,32.23,84,31,15.95,scattered clouds
334,Muros,ES,42.7762,-9.0603,48.16,89,99,4.92,overcast clouds
335,Potosi,BO,-19.5836,-65.7531,43.57,88,100,4.03,overcast clouds
336,Whitefish,US,48.4111,-114.3376,22.75,74,20,0.0,few clouds
337,Innisfail,AU,-17.5333,146.0333,76.55,95,100,14.5,light rain
338,Acapulco,MX,16.8634,-99.8901,80.42,69,0,6.91,clear sky
339,Makakilo City,US,21.3469,-158.0858,77.32,65,75,11.5,heavy intensity rain
340,San Carlos De Bariloche,AR,-41.1456,-71.3082,49.75,40,0,11.5,clear sky
341,Esperance,AU,-33.8667,121.9,70.23,55,41,0.6,scattered clouds
342,Rapar,IN,23.5667,70.6333,68.22,59,10,5.28,clear sky
343,Torbay,CA,47.6666,-52.7314,24.28,94,0,14.97,clear sky
344,Arica,CL,-18.475,-70.3042,76.55,73,100,1.14,overcast clouds
345,Morant Bay,JM,17.8815,-76.4093,78.42,82,6,9.89,clear sky
346,Naze,JP,28.3667,129.4833,61.72,68,79,11.86,broken clouds
347,Ustyuzhna,RU,58.8394,36.4321,-5.53,100,100,1.72,overcast clouds
348,Kosice,SK,48.6667,21.3333,29.32,93,20,2.3,fog
349,Dingle,PH,10.9995,122.6711,79.43,80,44,19.35,scattered clouds
350,Narnaul,IN,28.0444,76.1083,59.29,33,1,2.98,clear sky
351,Racaciuni,RO,46.3333,26.9833,31.44,83,14,2.93,few clouds
352,Montes Altos,BR,-5.8333,-47.0667,72.43,95,100,2.82,overcast clouds
353,Okato,NZ,-39.2,173.8833,65.17,81,100,21.99,overcast clouds
354,Tukan,RU,53.8409,57.4552,3.07,97,97,3.71,overcast clouds
355,Traverse City,US,44.7631,-85.6206,34.0,74,100,10.36,overcast clouds
356,Beatrice,US,40.2681,-96.747,24.78,74,100,14.97,overcast clouds
357,Finschhafen,PG,-6.6024,147.8681,82.29,75,94,4.36,overcast clouds
358,Caluquembe,AO,-13.7833,14.6833,54.75,96,52,2.44,broken clouds
359,Klaksvik,FO,62.2266,-6.589,40.12,68,41,32.39,scattered clouds
360,Biloela,AU,-24.4167,150.5,87.04,38,100,7.25,overcast clouds
361,Souillac,MU,-20.5167,57.5167,73.78,94,75,3.44,light intensity shower rain
362,Chibombo,ZM,-14.6569,28.0706,64.49,98,100,6.13,moderate rain
363,Paamiut,GL,61.994,-49.6678,22.78,89,100,18.66,overcast clouds
364,Flinders,AU,-34.5833,150.8552,85.17,61,97,7.0,overcast clouds
365,Kampot,KH,10.6167,104.1833,78.85,58,87,12.39,overcast clouds
366,Sao Joao Da Barra,BR,-21.6403,-41.0511,73.13,95,100,16.84,overcast clouds
367,Aswan,EG,24.0934,32.907,49.3,57,0,4.61,clear sky
368,Marsaxlokk,MT,35.8419,14.5431,43.41,100,20,1.14,few clouds
369,Billings,US,45.7833,-108.5007,20.97,63,0,18.41,clear sky
370,Ketchikan,US,55.3422,-131.6461,37.87,93,100,0.0,moderate rain
371,Yorkton,CA,51.2167,-102.4677,-5.96,77,0,10.36,clear sky
372,Aklavik,CA,68.2191,-135.0107,-27.45,99,19,1.03,few clouds
373,Kieta,PG,-6.2167,155.6333,84.97,70,45,4.68,scattered clouds
374,Shaowu,CN,27.3409,117.4831,50.61,67,0,3.22,clear sky
375,Pinheiro Machado,BR,-31.5783,-53.3811,63.05,94,1,8.14,clear sky
376,Tabou,CI,4.423,-7.3528,79.92,85,98,6.31,overcast clouds
377,Vostok,RU,46.4856,135.8833,9.1,76,25,4.61,scattered clouds
378,Saint-Philippe,RE,-21.3585,55.7679,71.19,79,74,8.48,broken clouds
379,Kaeo,NZ,-35.1,173.7833,70.92,72,42,8.72,scattered clouds
380,Fairbanks,US,64.8378,-147.7164,-1.39,74,0,0.0,clear sky
381,Bilibino,RU,68.0546,166.4372,-22.94,92,20,1.19,few clouds
382,Poso,ID,-1.3959,120.7524,84.06,67,99,3.53,overcast clouds
383,Ilulissat,GL,69.2167,-51.1,10.42,48,75,19.57,broken clouds
384,Tiksi,RU,71.6872,128.8694,-12.33,97,100,7.11,overcast clouds
385,Mananjary,MG,-21.2167,48.3333,73.09,91,90,2.82,light rain
386,Leningradskiy,RU,69.3833,178.4167,-29.27,97,98,7.36,overcast clouds
387,Damaturu,NG,11.747,11.9608,60.21,40,18,11.39,few clouds
388,Kulim,MY,5.365,100.5618,83.73,70,95,3.96,overcast clouds
389,Pacific Grove,US,36.6177,-121.9166,53.24,65,0,8.99,clear sky
390,Omboue,GA,-1.5746,9.2618,75.11,93,99,3.38,overcast clouds
391,Stepnogorsk,KZ,52.3544,71.8869,-12.82,100,89,4.5,overcast clouds
392,Teya,RU,60.3778,92.6267,-8.1,100,100,3.13,overcast clouds
393,Oron,NG,4.8256,8.2343,77.52,84,21,2.46,few clouds
394,Shirokiy,RU,49.758,129.523,3.25,89,98,4.18,overcast clouds
395,Diffa,NE,13.3154,12.6113,63.18,33,17,14.52,few clouds
396,Malakal,SS,9.5334,31.6605,72.27,18,100,13.44,overcast clouds
397,Clarence Town,AU,-32.5833,151.7833,85.6,27,0,4.32,clear sky
398,Kenai,US,60.5544,-151.2583,28.49,87,100,3.44,overcast clouds
399,Manjeshwar,IN,12.7194,74.8861,72.55,42,14,6.29,few clouds
400,Winder,US,33.9926,-83.7202,55.33,94,100,0.0,mist
401,Nova Olimpia,BR,-14.7972,-57.2881,75.7,85,97,3.76,overcast clouds
402,Coos Bay,US,43.3665,-124.2179,46.38,89,0,3.44,clear sky
403,Kaihua,CN,23.3687,104.28,50.77,91,100,5.01,overcast clouds
404,Havelock,US,34.8791,-76.9013,63.99,87,100,5.01,overcast clouds
405,Port Macquarie,AU,-31.4333,152.9167,80.89,54,0,8.68,clear sky
406,Miri,MY,4.4148,114.0089,84.34,79,40,6.91,scattered clouds
407,Bagdarin,RU,54.4333,113.6,7.86,87,100,4.21,overcast clouds
408,Basco,PH,20.4487,121.9702,70.36,70,100,29.64,overcast clouds
409,Soure,BR,-0.7167,-48.5233,77.04,89,100,11.36,overcast clouds
410,Sieradz,PL,51.5958,18.7302,31.37,94,61,7.11,broken clouds
411,Ruwi,OM,23.5996,58.5507,67.69,46,41,5.1,scattered clouds
412,Talcahuano,CL,-36.7167,-73.1167,60.48,67,0,17.27,clear sky
413,Riyadh,SA,24.6877,46.7219,53.74,59,96,15.08,overcast clouds
414,Vila Franca Do Campo,PT,37.7167,-25.4333,55.81,80,29,4.14,scattered clouds
415,Homer,US,59.6425,-151.5483,25.81,77,100,13.0,overcast clouds
416,Lakes Entrance,AU,-37.8811,147.981,95.16,47,100,6.8,overcast clouds
417,Herat,AF,34.5,62.0,61.66,26,100,22.97,overcast clouds
418,Aberdeen,GB,57.1437,-2.0981,43.48,94,75,3.44,broken clouds
419,Salamanca,ES,40.8333,-6.0,29.98,81,0,4.97,clear sky
420,Derzhavinsk,KZ,51.1,66.3167,11.07,97,100,8.28,overcast clouds
421,Padang,ID,-0.9492,100.3543,78.85,75,94,2.15,overcast clouds
422,Vila Velha,BR,-20.3297,-40.2925,80.55,82,20,13.0,few clouds
423,Trairi,BR,-3.2778,-39.2689,76.82,89,95,5.32,overcast clouds
424,Goderich,CA,43.7501,-81.7165,39.52,81,100,14.97,overcast clouds
425,Grand Gaube,MU,-20.0064,57.6608,74.37,77,4,4.0,clear sky
426,Margate,GB,51.3813,1.3862,48.69,87,100,4.0,overcast clouds
427,Russell,US,32.3502,-85.1999,70.88,73,100,5.75,overcast clouds
428,Richards Bay,ZA,-28.783,32.0377,74.7,94,100,5.75,overcast clouds
429,Vao,NC,-22.6667,167.4833,75.38,63,68,10.65,broken clouds
430,Katherine,AU,-14.4667,132.2667,91.72,55,68,6.91,broken clouds
431,Alofi,NU,-19.0595,-169.9187,82.29,83,75,8.05,light rain
432,Gitarama,RW,-2.0744,29.7567,62.06,68,100,3.51,overcast clouds
433,Barentu,ER,15.1139,37.5928,61.11,84,12,5.28,few clouds
434,Khanpur,PK,28.6453,70.6567,64.09,24,7,5.64,clear sky
435,Hasaki,JP,35.7333,140.8333,43.29,52,39,16.13,scattered clouds
436,Evensk,RU,61.95,159.2333,10.33,78,100,11.05,overcast clouds
437,Powell,US,40.1578,-83.0752,59.04,62,0,3.44,clear sky
438,Ulagan,RU,50.6321,87.9563,-2.04,94,100,1.28,overcast clouds
439,Nouadhibou,MR,20.931,-17.0347,62.58,77,0,25.32,sand
440,Morros,BR,-9.4467,-46.3003,75.49,71,57,3.69,broken clouds
441,Ohara,JP,35.25,140.3833,42.22,51,34,12.21,scattered clouds
442,Comodoro Rivadavia,AR,-45.8667,-67.5,53.46,32,40,16.11,scattered clouds
443,Bodden Town,KY,19.2833,-81.25,79.0,89,0,6.91,clear sky
444,Pilar,BR,-9.5972,-35.9567,76.93,81,100,5.35,overcast clouds
445,Nikel,RU,69.4128,30.222,26.78,91,100,20.54,overcast clouds
446,Vardo,NO,70.3705,31.1107,30.18,86,75,28.77,broken clouds
447,Tutoia,BR,-2.7619,-42.2744,79.81,82,100,11.5,overcast clouds
448,Uyemskiy,RU,64.4743,40.8524,12.25,92,0,8.95,clear sky
449,Malanje,AO,-9.5402,16.341,62.37,99,100,4.97,overcast clouds
450,Morro Bay,US,35.3658,-120.8499,51.22,61,0,1.99,clear sky
451,Taperoa,BR,-7.2075,-36.8267,73.54,77,93,11.14,overcast clouds
452,Valguarnera Caropepe,IT,37.4955,14.3888,40.8,87,0,2.28,clear sky
453,Kashi,CN,39.4547,75.9797,33.01,86,75,2.24,broken clouds
454,Kungurtug,RU,50.5994,97.5228,-11.33,91,33,1.28,scattered clouds
455,Srednekolymsk,RU,67.45,153.6833,-28.7,94,99,3.76,overcast clouds
456,Morehead,US,37.2711,-87.1764,61.0,89,0,0.0,clear sky
457,Danielskuil,ZA,-28.1887,23.5395,67.6,67,100,4.29,overcast clouds
458,Acarau,BR,-2.8856,-40.12,78.01,85,95,8.12,overcast clouds
459,Sapernoye,RU,60.7167,29.9505,33.51,98,100,5.95,overcast clouds
460,At-Bashi,KG,41.1702,75.8106,26.26,94,100,1.68,light snow
461,Vammala,FI,61.3333,22.9,32.7,92,100,8.79,overcast clouds
462,Yen Bai,VN,21.7,104.8667,61.79,70,100,1.36,overcast clouds
463,Sistranda,NO,63.7256,8.834,39.16,77,100,37.56,overcast clouds
464,Sivas,TR,39.7916,37.0019,18.23,92,75,6.91,mist
465,Xuanzhou,CN,30.9525,118.7553,45.39,52,0,6.4,clear sky
466,Beibei,CN,29.8256,106.4339,51.37,78,100,1.21,overcast clouds
467,Turukhansk,RU,65.8167,87.9833,4.57,96,100,9.46,overcast clouds
468,Half Moon Bay,US,37.4636,-122.4286,53.4,53,0,12.66,clear sky
469,Roma,US,43.2128,-75.4557,59.72,64,13,16.28,few clouds
470,Longyearbyen,SJ,78.2186,15.6401,26.44,68,20,23.02,few clouds
471,Finote Selam,ET,10.7,37.2667,58.24,66,83,2.33,broken clouds
472,Ambunti,PG,-4.2365,142.8448,79.92,83,100,1.68,overcast clouds
473,Rotnes,NO,60.0571,10.8614,34.66,99,100,8.61,overcast clouds
474,Ponta Do Sol,PT,32.6667,-17.1,59.0,53,39,11.61,scattered clouds
475,Aramil,RU,56.6977,60.8369,1.51,85,0,4.47,clear sky
476,Los Llanos De Aridane,ES,28.6585,-17.9182,53.35,81,75,10.36,broken clouds
477,Tondano,ID,1.3038,124.9112,77.09,70,100,2.64,overcast clouds
478,Birin,NP,26.8865,88.0718,54.64,43,80,1.59,broken clouds
479,Korla,CN,41.7597,86.1469,32.05,52,100,3.62,overcast clouds
480,Virginia Beach,US,36.8529,-75.978,68.02,61,40,9.22,scattered clouds
481,Merauke,ID,-8.4667,140.3333,83.3,75,100,16.78,overcast clouds
482,Caucaia,BR,-3.7361,-38.6531,81.03,79,75,3.44,broken clouds
483,Kupino,RU,54.3663,77.2981,-12.82,99,52,6.35,broken clouds
484,Ardakan,IR,32.31,54.0175,46.94,81,100,13.85,overcast clouds
485,Idukki,IN,9.85,76.9667,61.88,52,8,4.9,clear sky
486,Outjo,NA,-20.1167,16.15,61.52,41,9,7.56,clear sky
487,Mazara Del Vallo,IT,37.6641,12.588,48.94,79,0,6.4,clear sky
488,Lumphat,KH,13.4878,106.9816,81.21,47,6,11.48,clear sky
489,Machali,CL,-34.1833,-70.6667,68.04,43,3,0.72,clear sky
490,Omsukchan,RU,62.5333,155.8,-19.14,95,100,7.56,overcast clouds
491,Datong,CN,40.0936,113.2914,23.41,76,6,1.39,clear sky
492,Manduria,IT,40.4018,17.6335,45.32,72,0,1.21,clear sky
493,Galveston,US,29.3669,-94.9669,73.51,90,100,18.41,mist
494,Okhotsk,RU,59.3833,143.3,-4.7,72,100,18.59,overcast clouds
495,Gerash,IR,27.6652,54.1371,51.94,36,12,5.61,few clouds
496,Shache,CN,38.4167,77.2406,32.16,50,100,2.13,overcast clouds
497,Manzhouli,CN,49.6,117.4333,4.32,94,100,7.81,overcast clouds
498,Panzhihua,CN,26.5851,101.7128,60.48,41,0,1.43,clear sky
499,Mozarlandia,BR,-14.7447,-50.5706,71.91,89,100,4.54,overcast clouds
500,Knyaze-Volkonskoye,RU,48.4642,135.4567,10.74,85,34,7.2,scattered clouds
501,Reutte,AT,47.4833,10.7167,38.16,65,99,6.53,overcast clouds
502,Nome,US,64.5011,-165.4064,-11.83,83,0,0.0,clear sky
503,Kulhudhuffushi,MV,6.6221,73.07,80.2,66,82,9.53,broken clouds
504,Oussouye,SN,12.485,-16.5469,70.54,69,89,5.7,overcast clouds
505,Fort Nelson,CA,58.8053,-122.7002,6.39,87,75,2.3,broken clouds
506,Charters Towers,AU,-20.1,146.2667,74.37,73,100,17.13,overcast clouds
507,Vilshofen,DE,48.6333,13.1833,31.24,78,18,1.1,few clouds
508,San Jose,US,37.3394,-121.895,53.53,45,20,6.91,few clouds
509,Westport,US,41.1415,-73.3579,60.28,79,100,1.01,overcast clouds
510,Ibra,OM,22.6906,58.5334,63.73,30,2,3.31,clear sky
511,Miramar,US,25.9873,-80.2323,75.22,75,20,11.5,few clouds
512,Kollam,IN,8.8833,76.6,71.02,73,11,7.43,few clouds
513,East Wenatchee,US,47.4157,-120.2931,42.85,59,0,4.61,clear sky
514,Maple Creek,CA,49.9168,-109.4848,25.21,67,84,3.47,broken clouds
515,Gonen,TR,40.1049,27.654,33.03,32,7,0.47,clear sky
516,Abong Mbang,CM,3.9833,13.1833,62.58,43,77,2.84,broken clouds
517,Vila,PT,42.0304,-8.1588,40.08,84,43,3.53,scattered clouds
518,Verkh-Usugli,RU,52.7,115.1667,8.6,88,100,1.45,overcast clouds
519,Xining,CN,36.6167,101.7667,20.95,69,38,3.33,scattered clouds
520,Tucuma,BR,-0.1833,-50.05,75.36,95,100,3.78,moderate rain
521,Dharchula,IN,29.85,80.5333,54.27,28,1,6.33,clear sky
522,Chemodanovka,RU,53.2316,45.2474,12.09,95,99,6.69,overcast clouds
523,Karratha,AU,-20.7377,116.8463,100.72,21,9,5.82,clear sky
524,Santa Quiteria,BR,-4.3319,-40.1567,73.71,92,100,1.79,overcast clouds
525,Verkhnevilyuysk,RU,63.4453,120.3167,-10.17,97,99,2.46,overcast clouds
526,Hualmay,PE,-11.0964,-77.6139,75.04,81,100,4.54,overcast clouds
527,Araouane,ML,18.9048,-3.5265,71.51,18,100,12.19,overcast clouds
528,Siniscola,IT,40.5719,9.6922,35.15,84,54,3.29,broken clouds
529,Blyth,GB,55.1271,-1.5086,47.19,78,100,8.05,overcast clouds
530,Batagay-Alyta,RU,67.8006,130.4114,-28.41,86,35,2.51,scattered clouds
531,Christchurch,NZ,-43.5333,172.6333,69.91,59,40,20.71,scattered clouds
532,Atambua,ID,-9.1061,124.8925,78.12,82,96,2.95,overcast clouds
533,Moron,AR,-34.6534,-58.6198,80.78,49,24,6.73,few clouds
534,Kurtamysh,RU,54.9103,64.4319,-2.33,99,100,3.78,overcast clouds
535,Sept-Iles,CA,50.2001,-66.3821,27.12,95,100,9.22,mist
536,Saravan,AM,39.7196,45.6483,6.57,91,98,5.53,overcast clouds
537,Grand Baie,MU,-20.0182,57.5802,74.44,77,2,4.0,clear sky
538,Puerto Madryn,AR,-42.7692,-65.0385,47.64,74,100,18.32,moderate rain
539,Elban,RU,50.1018,136.5094,-2.7,92,99,4.85,overcast clouds
540,Taksimo,RU,56.3444,114.8794,9.03,89,100,2.46,overcast clouds
541,Hit,IQ,33.6416,42.8251,45.68,60,13,9.62,few clouds
542,Husavik,IS,66.0449,-17.3389,28.58,88,100,10.54,overcast clouds
543,Mitu,CO,1.1983,-70.1733,73.4,98,93,1.61,overcast clouds
544,Malindi,KE,-3.2175,40.1191,75.06,87,71,5.64,broken clouds
545,Ust-Kulom,RU,61.6864,53.6902,0.66,99,100,2.62,overcast clouds
546,Tanabe,JP,33.7333,135.3667,47.41,39,20,11.5,few clouds
547,Lockhart,US,28.6194,-81.4426,71.98,80,20,8.05,few clouds
548,Arrecife,ES,28.963,-13.5477,55.38,67,0,8.05,clear sky
549,Dalby,AU,-27.1833,151.2667,84.31,32,0,5.08,clear sky
550,Gladstone,AU,-23.85,151.25,85.93,48,40,14.97,scattered clouds
551,Yanam,IN,16.7333,82.2167,69.01,87,0,0.74,clear sky
552,Tocache,PE,-8.1842,-76.5125,71.94,97,100,1.01,overcast clouds
553,Umm Lajj,SA,25.0213,37.2685,61.05,58,0,8.55,clear sky
554,Rawson,AR,-43.3002,-65.1023,47.68,68,100,12.75,light rain
555,Kutum,SD,14.2,24.6667,50.59,25,0,14.41,clear sky
556,Kainantu,PG,-6.2887,145.8655,68.22,81,100,1.61,overcast clouds
557,Msanga,TZ,-6.05,36.0333,63.75,97,10,3.4,clear sky
558,Bloemfontein,ZA,-29.1211,26.214,62.08,94,88,3.44,overcast clouds
559,Hilton Head Island,US,32.2163,-80.7526,62.98,87,0,5.75,clear sky
560,Totma,RU,59.9747,42.7642,-7.6,100,100,3.51,overcast clouds
561,Cuamba,MZ,-14.8031,36.5372,67.03,99,99,3.76,light rain
562,San Felipe,VE,10.3399,-68.7425,71.17,96,100,5.77,overcast clouds
563,Batemans Bay,AU,-35.7167,150.1833,76.1,51,88,8.9,overcast clouds
564,Sanchor,IN,24.7553,71.7722,64.09,56,0,1.59,clear sky
565,Kathmandu,NP,27.7167,85.3167,55.62,70,40,2.3,mist
566,Chumikan,RU,54.7183,135.315,-4.05,85,18,19.17,few clouds
567,Krasnoselkup,RU,65.7,82.4667,0.01,97,98,8.63,overcast clouds
568,Nabire,ID,-3.3667,135.4833,81.81,77,100,2.86,light rain
569,Pangai,TO,-19.8,-174.35,84.31,74,75,11.5,light rain
570,Uyuni,BO,-20.4597,-66.825,52.9,67,75,5.73,broken clouds
571,Flin Flon,CA,54.7682,-101.865,-19.57,100,65,4.07,broken clouds
572,Darab,IR,28.7519,54.5444,55.83,49,2,6.69,clear sky
573,Katobu,ID,-4.9408,122.5276,82.53,75,99,8.03,overcast clouds
574,Tazovskiy,RU,67.4667,78.7,2.26,95,100,11.23,overcast clouds
575,Cabedelo,BR,-6.9811,-34.8339,81.27,82,100,10.76,overcast clouds
576,Sagar,IN,23.8333,78.7167,62.38,33,0,5.7,clear sky
577,Chizhou,CN,30.6578,117.4831,45.23,54,5,3.38,clear sky
578,Preobrazheniye,RU,42.9019,133.9064,26.29,35,11,6.76,few clouds
579,Kamaishi,JP,39.2667,141.8833,32.43,50,26,2.13,scattered clouds
580,Awjilah,LY,29.1081,21.2869,54.79,57,90,9.24,overcast clouds
581,Gulbarga,IN,17.3333,76.8333,69.48,25,3,5.35,clear sky
582,Sinjar,IQ,36.3209,41.8754,33.4,58,0,8.52,clear sky
583,Joensuu,FI,62.6012,29.7632,32.49,93,100,10.36,overcast clouds
584,Matagami,CA,49.7502,-77.6328,10.51,85,100,21.85,light snow
585,Bouna,CI,9.2667,-3.0,72.45,19,72,6.11,broken clouds
586,Bastia,FR,42.6667,9.3333,51.3,86,100,4.61,overcast clouds
587,Bontang,ID,0.1333,117.5,81.54,75,100,1.99,overcast clouds
588,Portree,GB,57.4129,-6.1942,35.53,86,17,4.81,few clouds
589,Xingyi,CN,24.1877,102.817,49.66,86,100,4.83,overcast clouds
590,Buzmeyin,TM,38.0507,58.2056,40.73,93,100,4.61,mist
591,Urusha,RU,54.05,122.9,5.0,82,100,1.99,overcast clouds
592,Kudahuvadhoo,MV,2.6708,72.8944,80.78,64,99,14.7,overcast clouds
593,Ekibastuz,KZ,51.6667,75.3667,-10.3,100,100,5.55,overcast clouds
594,Sao Filipe,CV,14.8961,-24.4956,69.98,73,0,14.03,clear sky
595,Zaysan,KZ,47.4667,84.8667,9.81,97,99,3.06,light snow
596,Asarganj,IN,25.15,86.6833,62.74,42,0,2.77,clear sky
597,Kemijarvi,FI,66.7131,27.4306,28.78,94,100,12.1,overcast clouds
598,Villiers,ZA,-27.0303,28.6006,59.86,97,100,3.65,overcast clouds
599,Smithers,CA,54.7804,-127.1743,34.12,64,100,3.44,overcast clouds
600,Hun,LY,29.1268,15.9477,48.0,65,5,5.35,clear sky
601,Kokopo,PG,-4.352,152.2633,85.26,65,99,4.65,overcast clouds
602,Salinopolis,BR,-0.6136,-47.3561,77.45,88,100,6.31,light rain
603,Ayan,RU,56.45,138.1667,-1.8,64,6,8.1,clear sky
604,Kiunga,PG,-6.1219,141.2906,86.56,62,100,4.54,overcast clouds
605,Saint-Francois,FR,46.4154,3.9054,26.04,93,0,0.0,clear sky
606,Kismayo,SO,-0.3582,42.5454,75.79,81,70,17.11,broken clouds
607,Zhigansk,RU,66.7697,123.3711,-29.43,98,100,9.75,overcast clouds
608,Lagoa Vermelha,BR,-28.2086,-51.5258,61.18,96,95,3.4,overcast clouds
609,Asosa,ET,10.0667,34.5333,59.74,25,72,7.74,broken clouds
610,Gravdal,NO,68.1214,13.5031,39.27,91,100,4.56,light rain
611,Bonthe,SL,7.5264,-12.505,76.05,94,87,4.27,overcast clouds
612,Yar-Sale,RU,66.8333,70.8333,12.06,85,100,20.09,overcast clouds
613,Vilyuysk,RU,63.7553,121.6247,-11.63,96,100,3.49,overcast clouds
614,Verkhoyansk,RU,67.5447,133.385,-39.75,94,65,0.85,broken clouds
615,Sioux Lookout,CA,50.1001,-91.917,3.27,66,40,4.61,scattered clouds
616,Ukiah,US,39.1502,-123.2078,48.09,48,0,0.0,clear sky
617,Agadez,NE,19.75,10.25,53.37,27,100,12.68,overcast clouds
618,Santa Maria,BR,-29.6842,-53.8069,72.7,94,0,9.22,clear sky
619,Beisfjord,NO,68.3751,17.5988,34.92,83,98,8.84,overcast clouds
620,Necochea,AR,-38.5473,-58.7368,61.03,72,11,13.62,few clouds
621,Chicama,PE,-7.8447,-79.1469,72.14,70,100,3.2,overcast clouds
622,Puerto Colombia,CO,10.9878,-74.9547,78.89,81,6,30.67,clear sky
623,Uruacu,BR,-14.5247,-49.1408,70.59,91,29,2.42,scattered clouds
624,Coahuayana,MX,18.7333,-103.6833,68.52,79,0,1.1,clear sky
625,Kyzyl-Suu,KG,42.3414,78.0056,30.0,90,100,4.54,light snow
626,Hajduhadhaz,HU,47.6833,21.6667,26.1,91,76,5.39,broken clouds
627,Constitucion,CL,-35.3333,-72.4167,59.07,80,0,12.93,clear sky
628,Ewa Beach,US,21.3156,-158.0072,78.75,67,75,11.5,light rain
629,Taunton,GB,51.0211,-3.1047,50.22,94,100,8.01,overcast clouds
630,Brewster,US,41.3973,-73.6171,61.14,61,0,12.66,clear sky
631,Saint-Pierre,RE,-21.3393,55.4781,73.9,68,0,5.75,clear sky
632,Rocha,UY,-34.4833,-54.3333,60.89,66,0,6.67,clear sky
633,Presidencia Roque Saenz Pena,AR,-26.7852,-60.4388,83.3,53,15,8.1,few clouds
634,Nusaybin,TR,37.0778,41.2178,31.86,57,0,7.74,clear sky
635,Nyaunglebin,MM,17.95,96.7333,85.17,36,0,4.07,clear sky
636,Arman,RU,59.7,150.1667,5.05,76,100,12.24,overcast clouds
637,Bilma,NE,18.6853,12.9164,55.67,29,21,9.1,few clouds
638,Non Thai,TH,15.1981,102.0358,77.49,57,86,16.31,overcast clouds
639,Piopio,NZ,-38.4667,175.0167,71.1,68,28,4.79,scattered clouds
640,Viedma,AR,-40.8135,-62.9967,56.35,51,78,17.74,broken clouds
641,Xai-Xai,MZ,-25.0519,33.6442,73.65,95,9,6.17,clear sky
642,Kalmunai,LK,7.4167,81.8167,75.92,71,85,4.88,overcast clouds
643,Partizanskoye,RU,55.5006,94.39,-0.47,99,100,2.44,overcast clouds
644,Neryungri,RU,56.6709,124.6491,0.61,90,100,5.53,overcast clouds
645,Martin,US,27.0837,-80.4164,74.97,86,0,7.18,clear sky
646,Mariel,CU,22.9875,-82.7536,68.25,84,0,5.77,clear sky
647,Namatanai,PG,-3.6667,152.4333,86.36,64,96,4.88,overcast clouds
648,Udachnyy,RU,66.4167,112.4,-13.63,99,100,3.94,overcast clouds
649,Birao,CF,10.2849,22.7882,66.06,20,2,12.8,clear sky
650,Wad Rawah,SD,15.1603,33.1397,61.21,25,0,17.25,clear sky
651,Maine-Soroa,NE,13.2114,12.0241,58.55,32,12,11.88,few clouds
652,La Romana,DO,18.4273,-68.9728,73.76,94,20,6.91,few clouds
653,Caravelas,BR,-17.7125,-39.2481,78.28,81,56,8.28,broken clouds
654,Pitanga,BR,-24.7572,-51.7614,62.76,99,64,2.64,broken clouds
655,Tiznit,MA,29.5833,-9.5,48.56,84,82,1.45,broken clouds
656,Kondinskoye,RU,59.6481,67.41,-8.09,99,35,4.36,scattered clouds
657,Warmbad,NA,-28.45,18.7333,66.09,59,2,5.66,clear sky
658,Serov,RU,59.6033,60.5787,-8.01,100,100,2.37,overcast clouds
659,Mount Gambier,AU,-37.8333,140.7667,96.62,12,88,7.2,overcast clouds
660,Conceicao Do Araguaia,BR,-8.2578,-49.2647,73.96,93,100,3.67,overcast clouds
661,Bolobo,CD,-2.1667,16.2333,73.24,79,100,3.0,overcast clouds
662,Armizonskoye,RU,55.9461,67.6736,-8.52,99,24,6.78,few clouds
663,Hofn,IS,64.2539,-15.2082,35.13,74,100,7.61,light snow
664,Nyurba,RU,63.2842,118.3319,-15.38,99,100,3.8,overcast clouds
665,Formosa Do Rio Preto,BR,-11.0483,-45.1931,72.95,74,41,3.62,scattered clouds
666,Nuuk,GL,64.1835,-51.7216,22.69,90,100,17.67,light snow
667,Rajpipla,IN,21.8667,73.5,77.63,20,0,4.56,clear sky
668,Mandalgovi,MN,45.7625,106.2708,13.84,41,100,1.97,overcast clouds
669,Mnogovershinnyy,RU,53.9353,139.9242,-0.38,75,3,6.78,clear sky
670,Yatou,CN,37.15,122.3833,38.28,31,0,5.93,clear sky
671,Fort Dix,US,40.0298,-74.6185,62.31,56,0,12.66,clear sky
672,Mao,ES,39.8885,4.2658,50.56,93,40,3.44,scattered clouds
673,Slidell,US,30.2752,-89.7812,73.0,89,40,4.61,scattered clouds
674,Quatre Cocos,MU,-20.2078,57.7625,74.08,75,9,5.12,clear sky
675,Puerto Palomas,MX,31.7667,-107.6167,35.53,27,2,23.78,clear sky
676,Pombas,CV,17.1503,-25.0201,65.98,74,14,18.92,few clouds
677,Kiskunhalas,HU,46.434,19.4848,34.59,84,3,5.06,clear sky
678,Atyrau,KZ,47.1167,51.8833,30.22,93,100,11.18,shower snow
679,Motygino,RU,58.1831,94.7592,-14.01,100,100,1.45,overcast clouds
680,Nicoya,CR,10.1483,-85.452,77.7,66,4,9.13,clear sky
